<locations>
	<location siteid="1" sitename="Valletta" lat="35.8989" lng="14.5146"/>
	<location siteid="2" sitename="Fort St Elmo" lat="35.9027" lng="14.5179"/>
	<location siteid="3" sitename="Sliema" lat="35.911" lng="14.5029"/>
	<location siteid="4" sitename="Delimara Point" lat="35.8202" lng="14.5604"/>
	<location siteid="5" sitename="Vittoriosa" lat="35.8879" lng="14.5226"/>
	<location siteid="7" sitename="Mediterranean Film Studios" lat="35.8944" lng="14.534"/>
	<location siteid="8" sitename="Kalkara" lat="35.8914" lng="14.532"/>
	<location siteid="9" sitename="Luqa Airport" lat="35.8541" lng="14.4833"/>
	<location siteid="11" sitename="Ghajn Tuffieha Bay" lat="35.9291" lng="14.3443"/>
	<location siteid="13" sitename="Marsamxett Harbour" lat="35.9008" lng="14.5039"/>
	<location siteid="14" sitename="Grand Harbour" lat="35.8888" lng="14.512"/>
	<location siteid="15" sitename="Blue Grotto" lat="35.8209" lng="14.4574"/>
	<location siteid="16" sitename="Grandmaster's Palace" lat="35.8987" lng="14.5142"/>
	<location siteid="17" sitename="Casino" lat="35.9241" lng="14.488"/>
	<location siteid="18" sitename="St Paul's Cathedral" lat="35.8864" lng="14.4039"/>
	<location siteid="19" sitename="Argotti Gardens" lat="35.8925" lng="14.5027"/>
	<location siteid="20" sitename="Mdina" lat="35.8865" lng="14.4029"/>
	<location siteid="21" sitename="Fort Ricasoli" lat="35.8973" lng="14.5264"/>
	<location siteid="22" sitename="Senglea" lat="35.8873" lng="14.5167"/>
	<location siteid="23" sitename="Gozo" lat="36.0443" lng="14.2512"/>
	<location siteid="24" sitename="Azure Window, Dwejra" lat="36.0525" lng="14.1882"/>
	<location siteid="25" sitename="Vittoriosa waterfront" lat="35.8875" lng="
14.5206"/>
	<location siteid="26" sitename="Elephant Rock" lat="36.0063" lng="14.3474"/>
	<location siteid="27" sitename="Fifla Rock" lat="35.7874" lng="14.4097"/>
	<location siteid="28" sitename="St Pauls Square" lat="35.8863" lng="14.4034"/>
	<location siteid="29" sitename="Hasan's Cave" lat="35.8066" lng="14.5176"/>
	<location siteid="30" sitename="Rinella Water Tank, Mediterranean Film Studios" lat="35.8944" lng="14.534"/>
	<location siteid="31" sitename="Triton Fountain" lat="35.8956" lng="14.5083"/>
	<location siteid="32" sitename="Upper Barrakka Gardens" lat="35.8949" lng="14.5121"/>
	<location siteid="33" sitename="Barrakka Lift" lat="35.8944" lng="14.512"/>
	<location siteid="34" sitename="St. Paul's Catacombs" lat="35.8809" lng="14.3978"/>
	<location siteid="35" sitename="Dingli Cliffs" lat="35.8493" lng="14.3804"/>
	<location siteid="36" sitename="Msida Yacht Marina" lat="35.8967" lng="14.4939"/>
	<location siteid="37" sitename="Independence Square" lat="35.9008" lng="14.5124"/>
	<location siteid="38" sitename="Valletta Ditch, St. Michael's Bastion" lat="35.8984" lng="14.507"/>
	<location siteid="39" sitename="Mnajdra Temples" lat="35.8266" lng="14.4365"/>
	<location siteid="40" sitename="Golden Bay" lat="35.9339" lng="14.3445"/>
	<location siteid="41" sitename="Blue Lagoon" lat="36.014" lng="14.3228"/>
	<location siteid="42" sitename="UNKNOWN"/>
	<location siteid="43" sitename="Auberge de Castille" lat="35.8958" lng="14.5114"/>
	<location siteid="44" sitename="Manoel Island" lat="35.9038" lng="14.5022"/>
	<location siteid="45" sitename="Fungus Rock, Dwejra" lat="36.0469" lng="14.1888"/>
	<location siteid="46" sitename="St Mary's Tower" lat="36.0069" lng="14.3299"/>
	<location Loca=""
tionSiteId="47" sitename="Courts of Law" lat="35.886" lng="14.4028"/>
	<location siteid="48" sitename="Greeks Gate" lat="35.8857" lng="14.4016"/>
	<location siteid="49" sitename="Lascaris War Rooms" lat="35.8949" lng="14.5128"/>
	<location siteid="50" sitename="Malta Times Newspaper"/>
	<location siteid="51" sitename="Dry Docks" lat="35.8821" lng="14.52"/>
	<location siteid="52" sitename="Cospicua" lat="35.8807" lng="14.5218"/>
	<location siteid="53" sitename="Republic St" lat="35.8973" lng="14.5109"/>
	<location siteid="54" sitename="St Sebastian Street" lat="35.9012" lng="14.5149"/>
	<location siteid="55" sitename="Behind the Scenes"/>
	<location siteid="56" sitename="British Hotel" lat="35.8959" lng="14.5134"/>
	<location siteid="57" sitename="Popeye Village" lat="35.9608" lng="14.3411"/>
	<location siteid="58" sitename="The Pub" lat="35.8986" lng="14.5147"/>
	<location siteid="59" sitename="Lascaris Ditch" lat="35.8949" lng="14.5094"/>
	<location siteid="60" sitename="Main Gate" lat="35.8847" lng="14.4034"/>
	<location siteid="62" sitename="Valletta City Gate" lat="35.8962" lng="14.5092"/>
	<location siteid="63" sitename="St Paul's Street" lat="35.8957" lng="14.5115"/>
	<location siteid="65" sitename="Imgiebah Bay" lat="35.9694" lng="14.3801"/>
	<location siteid="66" sitename="Verdala Palace" lat="35.8615" lng="14.4006"/>
	<location siteid="67" sitename="Flea Market" lat="35.8943" lng="14.5088"/>
	<location siteid="68" sitename="Road to Rabat/Mdina" lat="35.88" lng="14.4091"/>
	<location siteid="69" sitename="Floriana" lat="35.8923" lng="14.5029"/>
	<location siteid="71" sitename="Mosta Dome Church" lat="35.9141" lng="14.4228"/>
	<location siteid="72" sitename="Mos
ta" lat="35.9141" lng="14.4228"/>
	<location siteid="74" sitename="Hagar Qim" lat="35.8277" lng="14.4418"/>
	<location siteid="75" sitename="Salini Road" lat="35.9436" lng="14.4188"/>
	<location siteid="76" sitename="Parish Church of Mellieha" lat="35.9608" lng="14.361"/>
	<location siteid="77" sitename="Marsa Creek" lat="35.8808" lng="14.4989"/>
	<location siteid="78" sitename="Mtarfa" lat="35.8895" lng="14.3952"/>
	<location siteid="79" sitename="Balluta Buildings" lat="35.9139" lng="14.4944"/>
	<location siteid="80" sitename="Ramla Bay" lat="36.0616" lng="14.2844"/>
	<location siteid="81" sitename="Rabat (Victoria)" lat="36.0427" lng="14.2425"/>
	<location siteid="82" sitename="Citadel" lat="36.0468" lng="14.24"/>
	<location siteid="83" sitename="Vilhena Palace" lat="35.885" lng="14.4036"/>
	<location siteid="84" sitename="Marfa Ridge, Red Tower" lat="35.9748" lng="14.3431"/>
	<location siteid="85" sitename="Church of St Roch" lat="35.8981" lng="14.516"/>
	<location siteid="86" sitename="St John's Co Cathedral" lat="35.898" lng="14.5123"/>
	<location siteid="87" sitename="Marsaxlokk" lat="35.8412" lng="14.5393"/>
	<location siteid="88" sitename="Bastion" lat="35.8875" lng="14.4032"/>
	<location siteid="89" sitename="Opera House" lat="35.8965" lng="14.5102"/>
	<location siteid="90" sitename="Airfield" lat="35.8122" lng="14.5161"/>
	<location siteid="91" sitename="Comino Island" lat="36.0101" lng="14.3356"/>
	<location siteid="92" sitename="Palazzo Parisio" lat="35.9149" lng="14.4442"/>
	<location siteid="93" sitename="Crocodile Rock" lat="36.0649" lng="14.1847"/>
	<location siteid="94" sitename="N/A"/>
	<location siteid="95" sitename="Mellieha Cliffs" lat="35.9694" lng="14
.3742"/>
	<location siteid="96" sitename="Comino Caves" lat="36.0101" lng="14.3356"/>
	<location siteid="97" sitename="St Publius church" lat="35.8924" lng="14.5051"/>
	<location siteid="98" sitename="Qbajjar Salt Pans" lat="36.0795" lng="14.2302"/>
	<location siteid="99" sitename="Selmun" lat="35.9618" lng="14.3821"/>
	<location siteid="100" sitename="Ghar Dalam" lat="35.8365" lng="14.528"/>
	<location siteid="101" sitename="Church of St Dominic and The Blessed Virgin" lat="35.8761" lng="14.3991"/>
	<location siteid="102" sitename="Ghajn Tuffieha Tower" lat="35.9309" lng="14.3435"/>
	<location siteid="103" sitename="Ta' Cenc Hotel" lat="36.021" lng="14.2509"/>
	<location siteid="104" sitename="Herbert Ganado Gardens" lat="35.8935" lng="14.5101"/>
	<location siteid="105" sitename="Rabat" lat="0" lng="0"/>
	<location siteid="106" sitename="Lower Barrakka Gardens" lat="35.8974" lng="14.5176"/>
	<location siteid="107" sitename="Customs House" lat="35.894" lng="14.5129"/>
	<location siteid="108" sitename="Liesse Il-Belt Valletta," lat="35.8961" lng="14.5136"/>
	<location siteid="109" sitename="Flower Power Garden Centre" lat="35.899" lng="14.4278"/>
	<location siteid="110" sitename="Tiq Durumblat" lat="35.8993" lng="14.4295"/>
	<location siteid="111" sitename="Triq il Bacir" lat="35.8937" lng="14.4899"/>
	<location siteid="112" sitename="Triq Xu" lat="35.8789" lng="14.512"/>
	<location siteid="113" sitename="Kordin" lat="35.8809" lng="14.5087"/>
	<location siteid="114" sitename="Attard" lat="0" lng="0"/>
	<location siteid="115" sitename="Porte des Bombes" lat="35.8904" lng="14.5021"/>
	<location siteid="116" sitename="Fort Manoel" lat="35.903" lng="14.5055"/>
	<location siteid="117" Loca=""
tionSiteName="Parish Curch" lat="35.8717" lng="14.5083"/>
	<location siteid="118" sitename="Basilica of St Dominic" lat="35.9002" lng="14.5123"/>
	<location siteid="119" sitename="Fort Delimara" lat="35.8239" lng="14.5579"/>
	<location siteid="120" sitename="Waterfront car park" lat="35.8876" lng="14.504"/>
	<location siteid="121" sitename="Ordinance St" lat="35.8972" lng="14.5093"/>
	<location siteid="122" sitename="St Joseph High Road" lat="35.886" lng="14.4899"/>
	<location siteid="123" sitename="Mqabba" lat="35.8444" lng="14.4694"/>
	<location siteid="124" sitename="Triq il-Vittmi Furjaniżi tal-Gwerra" lat="35.8903" lng="14.5077"/>
	<location siteid="125" sitename="Church St" lat="35.9489" lng="14.4059"/>
	<location siteid="126" sitename="Parish Church" lat="35.9149" lng="14.4448"/>
	<location siteid="127" sitename="Addolorata Cementery" lat="35.8693" lng="14.5007"/>
	<location siteid="128" sitename="Wignacourt Tower" lat="35.9496" lng="14.4029"/>
	<location siteid="129" sitename="Madliena Bridge" lat="35.9269" lng="14.4607"/>
	<location siteid="130" sitename="Madliena Valley" lat="35.9308" lng="14.4563"/>
	<location siteid="131" sitename="Melieha" lat="35.9524" lng="14.3501"/>
	<location siteid="132" sitename="Mġarr ix-Xini" lat="36.0204" lng="14.2713"/>
	<location siteid="133" sitename="ta' frenc restaurant, Xaghra" lat="36.0598" lng="14.2541"/>
	<location siteid="134" sitename="Gharb" lat="36.0602" lng="14.2089"/>
	<location siteid="135" sitename="Mgarr ix-Xini Tower" lat="36.0174" lng="14.2742"/>
	<location siteid="136" sitename="Malta Freeport" lat="35.816" lng="14.5379"/>
	<location siteid="137" sitename="St Dominic's Priory" lat="35.8764" lng="14.3995"/>
	<location siteid="138" Location=""
SiteName="Mediterranean Conference Centre (formerly Infirmary)" lat="35.8995" lng="14.518"/>
	<location siteid="139" sitename="Wied iz-Zurrieq" lat="35.8206" lng="14.4538"/>
	<location siteid="140" sitename="Fort St Rocco" lat="35.8922" lng="14.5373"/>
	<location siteid="141" sitename="Wied Babu" lat="35.8239" lng="14.46"/>
	<location siteid="142" sitename="Birzebbugia" lat="35.8136" lng="14.5247"/>
	<location siteid="143" sitename="Strait St" lat="35.8997" lng="14.5137"/>
	<location siteid="144" sitename="Radisson Blu Resort and Spa, Golden Sands" lat="35.9352" lng="14.3448"/>
	<location siteid="145" sitename="Villa Blanche" lat="35.8259" lng="14.5013"/>
	<location siteid="146" sitename="San Gwann" lat="35.9077" lng="14.4752"/>
	<location siteid="147" sitename="Grand Hotel Excelsior" lat="35.8972" lng="14.5054"/>
	<location siteid="148" sitename="Saint Ursula St" lat="35.8957" lng="14.5125"/>
	<location siteid="149" sitename="Great Siege Rd" lat="35.8957" lng="14.5063"/>
	<location siteid="150" sitename="Bridge (unkown rd)" lat="35.9179" lng="14.4268"/>
	<location siteid="151" sitename="Grand Harbour Hotel" lat="35.8959" lng="14.5134"/>
	<location siteid="152" sitename="Republic Square" lat="35.8985" lng="14.5133"/>
	<location siteid="153" sitename="Primera Hotel" lat="35.9507" lng="14.4144"/>
	<location siteid="154" sitename="Old docks" lat="35.882" lng="14.5202"/>
	<location siteid="155" sitename="St Paul's Church" lat="35.8819" lng="14.3988"/>
</locations>
